{"type": "FeatureCollection", "version": "draft", "features": [{"type": "Feature", "geometry": {"type": "Point", "coordinates": [2.830058, 50.408007]}, "properties": {"label": "Avion", "score": 0.9485390909090908, "id": "62065", "type": "municipality", "name": "Avion", "postcode": "62210", "citycode": "62065", "x": 687902.31, "y": 7034504.78, "population": 17625, "city": "Avion", "context": "62, Pas-de-Calais, Hauts-de-France", "importance": 0.43393}}, {"type": "Feature", "geometry": {"type": "Point", "coordinates": [-0.775827, 44.857434]}, "properties": {"label": "Avions Marcel Dassault 33127 Martignas-sur-Jalle", "score": 0.8569727272727272, "id": "33273_ygwzrj", "name": "Avions Marcel Dassault", "postcode": "33127", "citycode": "33273", "x": 401823.69, "y": 6424715.03, "city": "Martignas-sur-Jalle", "context": "33, Gironde, Nouvelle-Aquitaine", "type": "street", "importance": 0.4267}}, {"type": "Feature", "geometry": {"type": "Point", "coordinates": [1.458072, 43.576673]}, "properties": {"label": "Avenue des Avions 31400 Toulouse", "score": 0.7080536363636363, "id": "31555_0732", "name": "Avenue des Avions", "postcode": "31400", "citycode": "31555", "x": 575417.12, "y": 6276506.64, "city": "Toulouse", "context": "31, Haute-Garonne, Occitanie", "type": "street", "importance": 0.78859}}, {"type": "Feature", "geometry": {"type": "Point", "coordinates": [2.812851, 50.406077]}, "properties": {"label": "Boulevard Henri Martel 62210 Avion", "score": 0.7005890909090908, "id": "62065_0911", "name": "Boulevard Henri Martel", "postcode": "62210", "citycode": "62065", "x": 686676.88, "y": 7034292.56, "city": "Avion", "context": "62, Pas-de-Calais, Hauts-de-France", "type": "street", "importance": 0.70648}}, {"type": "Feature", "geometry": {"type": "Point", "coordinates": [1.45975, 43.57678]}, "properties": {"label": "Place des Avions 31400 Toulouse", "score": 0.699101818181818, "id": "31555_0736", "name": "Place des Avions", "postcode": "31400", "citycode": "31555", "x": 575552.91, "y": 6276515.89, "city": "Toulouse", "context": "31, Haute-Garonne, Occitanie", "type": "street", "importance": 0.69012}}], "attribution": "BAN", "licence": "ETALAB-2.0", "query": "avion", "limit": 5}