{"type": "FeatureCollection", "version": "draft", "features": [{"type": "Feature", "geometry": {"type": "Point", "coordinates": [2.244676, 49.167686]}, "properties": {"label": "Chambly", "score": 0.9460299999999998, "id": "60139", "type": "municipality", "name": "Chambly", "postcode": "60230", "citycode": "60139", "x": 644910.83, "y": 6896700.01, "population": 10147, "city": "Chambly", "context": "60, Oise, Hauts-de-France", "importance": 0.40633}}, {"type": "Feature", "geometry": {"type": "Point", "coordinates": [2.239451, 49.167626]}, "properties": {"label": "Rue Henri Barbusse 60230 Chambly", "score": 0.69405, "id": "60139_0420", "name": "Rue Henri Barbusse", "postcode": "60230", "citycode": "60139", "x": 644529.69, "y": 6896696.99, "city": "Chambly", "context": "60, Oise, Hauts-de-France", "type": "street", "importance": 0.63455}}, {"type": "Feature", "geometry": {"type": "Point", "coordinates": [2.251549, 49.163402]}, "properties": {"label": "Avenue Aristide Briand 60230 Chambly", "score": 0.6932772727272727, "id": "60139_0070", "name": "Avenue Aristide Briand", "postcode": "60230", "citycode": "60139", "x": 645407.57, "y": 6896218.76, "city": "Chambly", "context": "60, Oise, Hauts-de-France", "type": "street", "importance": 0.62605}}, {"type": "Feature", "geometry": {"type": "Point", "coordinates": [2.240647, 49.143184]}, "properties": {"label": "Rue de Chambly 95660 Champagne-sur-Oise", "score": 0.6929990909090908, "id": "95134_0260", "name": "Rue de Chambly", "postcode": "95660", "citycode": "95134", "x": 644590.77, "y": 6893977.68, "city": "Champagne-sur-Oise", "context": "95, Val-d'Oise, \u00cele-de-France", "type": "street", "importance": 0.62299}}, {"type": "Feature", "geometry": {"type": "Point", "coordinates": [2.242633, 49.168027]}, "properties": {"label": "Rue Andr\u00e9 Caron 60230 Chambly", "score": 0.6926781818181817, "id": "60139_0060", "name": "Rue Andr\u00e9 Caron", "postcode": "60230", "citycode": "60139", "x": 644762.19, "y": 6896739.36, "city": "Chambly", "context": "60, Oise, Hauts-de-France", "type": "street", "importance": 0.61946}}], "attribution": "BAN", "licence": "ETALAB-2.0", "query": "chambly", "limit": 5}