{"type": "FeatureCollection", "version": "draft", "features": [{"type": "Feature", "geometry": {"type": "Point", "coordinates": [2.347, 48.859]}, "properties": {"label": "Paris", "score": 0.9704072727272726, "id": "75056", "type": "municipality", "name": "Paris", "postcode": "75001", "citycode": "75056", "x": 652089.7, "y": 6862305.26, "population": 2165423, "city": "Paris", "context": "75, Paris, \u00cele-de-France", "importance": 0.67448}}, {"type": "Feature", "geometry": {"type": "Point", "coordinates": [2.551223, 48.356148]}, "properties": {"label": "Paris Foret 77760 Ach\u00e8res-la-For\u00eat", "score": 0.8616154545454544, "id": "77001_B064", "name": "Paris Foret", "postcode": "77760", "citycode": "77001", "x": 666755.53, "y": 6806298.8, "city": "Ach\u00e8res-la-For\u00eat", "context": "77, Seine-et-Marne, \u00cele-de-France", "type": "street", "importance": 0.47777}}, {"type": "Feature", "geometry": {"type": "Point", "coordinates": [6.069561, 43.415211]}, "properties": {"label": "Paris 83170 Brignoles", "score": 0.8607118181818182, "id": "83023_05n1tm", "name": "Paris", "postcode": "83170", "citycode": "83023", "x": 948661.53, "y": 6262177.77, "city": "Brignoles", "context": "83, Var, Provence-Alpes-C\u00f4te d'Azur", "type": "street", "importance": 0.46783}}, {"type": "Feature", "geometry": {"type": "Point", "coordinates": [-0.418837, 44.758777]}, "properties": {"label": "Paris 33880 Saint-Caprais-de-Bordeaux", "score": 0.8596045454545453, "id": "33381_sy62ut", "name": "Paris", "postcode": "33880", "citycode": "33381", "x": 429522.28, "y": 6412482.95, "city": "Saint-Caprais-de-Bordeaux", "context": "33, Gironde, Nouvelle-Aquitaine", "type": "street", "importance": 0.45565}}, {"type": "Feature", "geometry": {"type": "Point", "coordinates": [0.156967, 47.336761]}, "properties": {"label": "Paris Buton 37140 Bourgueil", "score": 0.857070909090909, "id": "37031_B165", "name": "Paris Buton", "postcode": "37140", "citycode": "37031", "x": 485361.07, "y": 6696801.34, "city": "Bourgueil", "context": "37, Indre-et-Loire, Centre-Val de Loire", "type": "street", "importance": 0.42778}}], "attribution": "BAN", "licence": "ETALAB-2.0", "query": "paris", "limit": 5}